[{"item_id": 904330915, "category": ["arts_centre", "attraction"], "name": "Oxum Casa de Arte", "longitude": -38.5296316, "latitude": -12.9995737}, {"item_id": 2517399085, "category": ["arts_centre"], "name": "Instituto Goethe", "longitude": -38.5237461, "latitude": -12.9896961}, {"item_id": 2627312981, "category": ["arts_centre"], "name": "Caixa Cultural", "longitude": -38.5152206, "latitude": -12.9796661}, {"item_id": 2627418546, "category": ["arts_centre"], "name": "Galeria Pierre Verger", "longitude": -38.5132376, "latitude": -12.9856154}, {"item_id": 4013135970, "category": ["arts_centre"], "name": "Escola de Dança Ebateca", "longitude": -38.5085669, "latitude": -13.0080558}, {"item_id": 310359209, "category": ["arts_centre"], "name": "Hora da Criança", "longitude": -38.4840547, "latitude": -13.0036567}, {"item_id": 5329649749, "category": ["artwork"], "name": "Iemanjá", "longitude": -38.4920392, "latitude": -13.0125789}, {"item_id": 4832446778, "category": ["attraction"], "name": "Escola Olodum", "longitude": -38.5082073, "latitude": -12.9740496}, {"item_id": 59224731, "category": ["attraction"], "name": "Elevador Lacerda", "longitude": -38.5131794, "latitude": -12.9742309}, {"item_id": 59392558, "category": ["attraction"], "name": "Mercado Modelo", "longitude": -38.5139677, "latitude": -12.9729297}, {"item_id": 247777942, "category": ["attraction"], "name": "Solar Ferrão", "longitude": -38.5082415, "latitude": -12.9724087}, {"item_id": 2917546802, "category": ["castle"], "name": "Forte São Pedro", "longitude": -38.520614, "latitude": -12.9874975}, {"item_id": 4489601833, "category": ["gallery"], "name": "Galeria Cañizares UFBA", "longitude": -38.5212313, "latitude": -12.9911514}, {"item_id": 529060747, "category": ["heritage", "historic"], "name": "Centro Histórico de Salvador de Bahia", "longitude": -38.5125714, "latitude": -12.973757}, {"item_id": 904254510, "category": ["historic", "museum"], "name": "Forte de Santa Maria", "longitude": -38.5339192, "latitude": -13.0045113}, {"item_id": 1014938188, "category": ["historic"], "name": "Forte de São Diogo", "longitude": -38.5326934, "latitude": -13.0017986}, {"item_id": 1446213393, "category": ["historic", "museum"], "name": "Palacete das Artes Rodin Bahia", "longitude": -38.5255101, "latitude": -12.9978833}, {"item_id": 1739618198, "category": ["historic"], "name": "Aliança Francesa", "longitude": -38.5278412, "latitude": -12.9968008}, {"item_id": 87291138, "category": ["historic", "museum"], "name": "Museu Náutico da Bahia", "longitude": -38.5329129, "latitude": -13.0103339}, {"item_id": 7628527, "category": ["historic"], "name": "Pestana Convento do Carmo", "longitude": -38.5071935, "latitude": -12.9685803}, {"item_id": 7637177, "category": ["historic"], "name": "Lar Franciscano", "longitude": -38.5068413, "latitude": -12.9734767}, {"item_id": 736956753, "category": ["information"], "name": "Saltur", "longitude": -38.5136285, "latitude": -12.973263}, {"item_id": 4620624732, "category": ["information"], "name": "Informações Turísticas", "longitude": -38.5309085, "latitude": -13.009825}, {"item_id": 991899628, "category": ["monument_memorial"], "name": "Terreiro de Jesus", "longitude": -38.5099296, "latitude": -12.9731013}, {"item_id": 1458810408, "category": ["monument_memorial"], "name": "Monumento ao Cabloco", "longitude": -38.5214266, "latitude": -12.9890724}, {"item_id": 1489487295, "category": ["monument_memorial"], "name": "Monumento Cleriston Andrade", "longitude": -38.5051364, "latitude": -13.0010363}, {"item_id": 4379475278, "category": ["monument_memorial"], "name": "Marquês de Tamandaré", "longitude": -38.5333522, "latitude": -13.004633}, {"item_id": 5063175822, "category": ["monument_memorial"], "name": "Cruz Caída", "longitude": -38.5117795, "latitude": -12.9732449}, {"item_id": 5111051916, "category": ["monument_memorial"], "name": "Homenagem do Exército aos Heróis de Canudos", "longitude": -38.5202454, "latitude": -12.9874945}, {"item_id": 5369294463, "category": ["monument_memorial"], "name": "Pedra de Xangô", "longitude": -38.3991056, "latitude": -12.8959326}, {"item_id": 366301422, "category": ["monument_memorial"], "name": "Forte da Capoeira", "longitude": -38.5031886, "latitude": -12.9624768}, {"item_id": 366301428, "category": ["monument_memorial"], "name": "Forte do Barbalho", "longitude": -38.5001115, "latitude": -12.9649175}, {"item_id": 340233810, "category": ["museum"], "name": "Museu de Arte Moderna da Bahia", "longitude": -38.5202865, "latitude": -12.9822757}, {"item_id": 340233813, "category": ["museum"], "name": "Museu de Arte da Bahia", "longitude": -38.525915, "latitude": -12.9936089}, {"item_id": 991899630, "category": ["museum"], "name": "Museu da Cidade", "longitude": -38.508382, "latitude": -12.9718007}, {"item_id": 991899664, "category": ["museum"], "name": "Museu de Arqueologia e Etnologia", "longitude": -38.5099445, "latitude": -12.9726228}, {"item_id": 991899666, "category": ["museum"], "name": "Museu Afro-Brasileiro", "longitude": -38.509838, "latitude": -12.972785}, {"item_id": 1014938186, "category": ["museum"], "name": "Museu do Forte de São Diogo", "longitude": -38.5326505, "latitude": -13.001945}, {"item_id": 1486422687, "category": ["museum"], "name": "Museu Abelardo Rodrigues", "longitude": -38.508312, "latitude": -12.9724884}, {"item_id": 1486422689, "category": ["museum"], "name": "Fundação Casa de Jorge Amado", "longitude": -38.5085133, "latitude": -12.9717126}, {"item_id": 1486422690, "category": ["museum"], "name": "Museu da Gastronomia Baiana", "longitude": -38.5081752, "latitude": -12.9715244}, {"item_id": 2546347647, "category": ["museum"], "name": "Museu Carlos Costa Pinto", "longitude": -38.5272767, "latitude": -12.9947517}, {"item_id": 4364718106, "category": ["museum"], "name": "Museu da Misericórdia", "longitude": -38.5118682, "latitude": -12.9737659}, {"item_id": 4832439737, "category": ["museum"], "name": "Museu da Música Brasileira", "longitude": -38.5083454, "latitude": -12.9739586}, {"item_id": 5128689863, "category": ["museum"], "name": "Museu Geológico da Bahia", "longitude": -38.5255028, "latitude": -12.9925749}, {"item_id": 29415493, "category": ["museum"], "name": "Forte de São Marcelo", "longitude": -38.5177846, "latitude": -12.9699896}, {"item_id": 444446827, "category": ["museum"], "name": "Instituto Feminino da Bahia", "longitude": -38.5189464, "latitude": -12.9867115}, {"item_id": 463185163, "category": ["museum"], "name": "Museu de Arte Sacra", "longitude": -38.5163473, "latitude": -12.9790093}, {"item_id": 474260844, "category": ["museum"], "name": "Casa do Rio Vermelho", "longitude": -38.4897404, "latitude": -13.007764}, {"item_id": 565771434, "category": ["viewpoint"], "name": "Morro do Cristo", "longitude": -38.523881, "latitude": -13.0108191}, {"item_id": 1776511037, "category": ["viewpoint"], "name": "Ponta do Humaitá", "longitude": -38.5195141, "latitude": -12.9285838}, {"item_id": 30967921, "category": ["zoo"], "name": "Parque Zoobotânico Getúlio Vargas", "longitude": -38.5056146, "latitude": -13.0063696}]